[
  {
    "id": "det_001",
    "inspectionId": "default",
    "timestamp": 11,
    "waypointId": 1,
    "classId": 7,
    "className": "glass insulator",
    "confidence": 0.94,
    "isAnomaly": false,
    "severity": "low",
    "description": "Glass insulator detected — no visible defects",
    "lat": 50.2921,
    "lng": 18.6918,
    "bbox": { "x": 145, "y": 92, "w": 88, "h": 76 }
  },
  {
    "id": "det_002",
    "inspectionId": "default",
    "timestamp": 30,
    "waypointId": 4,
    "classId": 3,
    "className": "stockbridge damper",
    "confidence": 0.87,
    "isAnomaly": false,
    "severity": "low",
    "description": "Stockbridge damper detected — condition appears normal",
    "lat": 50.2882,
    "lng": 18.7271,
    "bbox": { "x": 210, "y": 130, "w": 64, "h": 48 }
  },
  {
    "id": "det_003",
    "inspectionId": "default",
    "timestamp": 50,
    "waypointId": 7,
    "classId": 6,
    "className": "polymer insulator",
    "confidence": 0.91,
    "isAnomaly": false,
    "severity": "low",
    "description": "Polymer insulator detected — surface condition normal",
    "lat": 50.2836,
    "lng": 18.7682,
    "bbox": { "x": 320, "y": 88, "w": 72, "h": 110 }
  },
  {
    "id": "det_004",
    "inspectionId": "default",
    "timestamp": 65,
    "waypointId": 9,
    "classId": 0,
    "className": "yoke",
    "confidence": 0.76,
    "isAnomaly": false,
    "severity": "info",
    "description": "Yoke detected — component present and within expected condition",
    "lat": 50.2805,
    "lng": 18.7955,
    "bbox": { "x": 180, "y": 200, "w": 96, "h": 60 }
  },
  {
    "id": "det_005",
    "inspectionId": "default",
    "timestamp": 80,
    "waypointId": 11,
    "classId": 15,
    "className": "glass insulator tower shackle",
    "confidence": 0.89,
    "isAnomaly": false,
    "severity": "low",
    "description": "Tower shackle detected — no structural issues visible",
    "lat": 50.2777,
    "lng": 18.8227,
    "bbox": { "x": 260, "y": 110, "w": 80, "h": 80 }
  },
  {
    "id": "det_006",
    "inspectionId": "default",
    "timestamp": 95,
    "waypointId": 13,
    "classId": 2,
    "className": "spacer",
    "confidence": 0.82,
    "isAnomaly": false,
    "severity": "low",
    "description": "Conductor spacer detected — alignment appears normal",
    "lat": 50.2746,
    "lng": 18.8499,
    "bbox": { "x": 390, "y": 155, "w": 70, "h": 55 }
  },
  {
    "id": "det_007",
    "inspectionId": "default",
    "timestamp": 112,
    "waypointId": 16,
    "classId": 4,
    "className": "lightning rod shackle",
    "confidence": 0.78,
    "isAnomaly": false,
    "severity": "low",
    "description": "Lightning rod shackle detected — no maintenance issues identified",
    "lat": 50.2700,
    "lng": 18.8908,
    "bbox": { "x": 120, "y": 75, "w": 58, "h": 62 }
  },
  {
    "id": "det_008",
    "inspectionId": "default",
    "timestamp": 128,
    "waypointId": 18,
    "classId": 9,
    "className": "vari-grip",
    "confidence": 0.93,
    "isAnomaly": false,
    "severity": "info",
    "description": "Vari-grip conductor clamp detected — component appears intact",
    "lat": 50.2669,
    "lng": 18.9180,
    "bbox": { "x": 290, "y": 180, "w": 84, "h": 68 }
  }
]